{"type":"FeatureCollection","features":[{"type":"Feature","properties":{"name":"Rathaus","type":"poi","nr":"27","nrname":"27 Rathaus","id":"frankenberg-p27-27"},"geometry":{"type":"Point","coordinates":[8.80142212,51.05857408]}},{"type":"Feature","properties":{"name":"Pfarrhof","type":"poi","nr":"25","nrname":"25 Pfarrhof","id":"frankenberg-p25-25"},"geometry":{"type":"Point","coordinates":[8.79996568,51.0591068]}},{"type":"Feature","properties":{"name":"Lateinschule","type":"poi","nr":"5","nrname":"5 Lateinschule","id":"frankenberg-u05-5"},"geometry":{"type":"Point","coordinates":[8.798754,51.058902]}},{"type":"Feature","properties":{"name":"Liebfrauenkirche","type":"poi","nr":"6","nrname":"6 Liebfrauenkirche","id":"frankenberg-p06-6"},"geometry":{"type":"Point","coordinates":[8.798968,51.058731]}},{"type":"Feature","properties":{"name":"Frühere Mädchenschule","type":"poi","nr":"7","nrname":"7 Frühere Mädchenschule","id":"frankenberg-p07-7"},"geometry":{"type":"Point","coordinates":[8.79852265,51.05820488]}},{"type":"Feature","properties":{"name":"Hospitalkirche","type":"poi","nr":"9","nrname":"9 Hospitalkirche","id":"frankenberg-u09-9"},"geometry":{"type":"Point","coordinates":[8.80007029,51.05774632]}},{"type":"Feature","properties":{"name":"Burgberg","type":"poi","nr":"3","nrname":"3 Burgberg","id":"frankenberg-u03-3"},"geometry":{"type":"Point","coordinates":[8.797551,51.057895]}},{"type":"Feature","properties":{"name":"Gedenkstein","type":"poi","nr":"4","nrname":"4 Gedenkstein","id":"frankenberg-u04-4"},"geometry":{"type":"Point","coordinates":[8.79710376,51.05768732]}},{"type":"Feature","properties":{"name":"Teichmühle","type":"poi","nr":"1","nrname":"1 Teichmühle","id":"frankenberg-u01-1"},"geometry":{"type":"Point","coordinates":[8.79787624,51.05665893]}},{"type":"Feature","properties":{"name":"Neustädter Tor","type":"poi","nr":"15","nrname":"15 Neustädter Tor","id":"frankenberg-p15-15"},"geometry":{"type":"Point","coordinates":[8.79485071,51.05794188]}},{"type":"Feature","properties":{"name":"Kloster St. Georgenberg","type":"poi","nr":"12","nrname":"12 Kloster St. Georgenberg","id":"frankenberg-u12-12"},"geometry":{"type":"Point","coordinates":[8.79213631,51.05639592]}},{"type":"Feature","properties":{"name":"Kloster St. Georgenberg","type":"poi","nr":"13","nrname":"13 Kloster St. Georgenberg","id":"frankenberg-p13-13"},"geometry":{"type":"Point","coordinates":[8.7930603,51.0571183]}},{"type":"Feature","properties":{"name":"Kloster St. Georgenberg","type":"poi","nr":"14","nrname":"14 Kloster St. Georgenberg","id":"frankenberg-p14-14"},"geometry":{"type":"Point","coordinates":[8.7925642,51.0575313]}},{"type":"Feature","properties":{"name":"Neustädter Rathaus","type":"poi","nr":"33","nrname":"33 Neustädter Rathaus","id":"frankenberg-p33-33"},"geometry":{"type":"Point","coordinates":[8.79673898,51.05945576]}},{"type":"Feature","properties":{"name":"Pfeffermühle","type":"poi","nr":"16","nrname":"16 Pfeffermühle","id":"frankenberg-p16-16"},"geometry":{"type":"Point","coordinates":[8.79673898,51.05971369]}},{"type":"Feature","properties":{"name":"Meyenhof (ehemals Hausnummer 491)","type":"poi","nr":"50","nrname":"50 Meyenhof (ehemals Hausnummer 491)","id":"frankenberg-p50-50"},"geometry":{"type":"Point","coordinates":[8.79746854,51.06002387]}},{"type":"Feature","properties":{"name":"Mühlentor","type":"poi","nr":"17","nrname":"17 Mühlentor","id":"frankenberg-p17-17"},"geometry":{"type":"Point","coordinates":[8.79900545,51.06065098]}},{"type":"Feature","properties":{"name":"Niedermühle","type":"poi","nr":"18","nrname":"18 Niedermühle","id":"frankenberg-p18-18"},"geometry":{"type":"Point","coordinates":[8.79900545,51.06065098]}},{"type":"Feature","properties":{"name":"Röddenauer Tor","type":"poi","nr":"38","nrname":"38 Röddenauer Tor","id":"frankenberg-p38-38"},"geometry":{"type":"Point","coordinates":[8.79922271,51.06021437]}},{"type":"Feature","properties":{"name":"Bürgerhaus","type":"poi","nr":"39","nrname":"39 Bürgerhaus","id":"frankenberg-p39-39"},"geometry":{"type":"Point","coordinates":[8.79976988,51.06022954]}},{"type":"Feature","properties":{"name":"Bürgerhaus","type":"poi","nr":"31","nrname":"31 Bürgerhaus","id":"frankenberg-p31-31"},"geometry":{"type":"Point","coordinates":[8.80000591,51.05988733]}},{"type":"Feature","properties":{"name":"Patrizierhaus","type":"poi","nr":"32","nrname":"32 Patrizierhaus","id":"frankenberg-p32-32"},"geometry":{"type":"Point","coordinates":[8.80026072,51.05939507]}},{"type":"Feature","properties":{"name":"Bürgerhaus","type":"poi","nr":"43","nrname":"43 Bürgerhaus","id":"frankenberg-p43-43"},"geometry":{"type":"Point","coordinates":[8.80097419,51.05957377]}},{"type":"Feature","properties":{"name":"Herbold'sches Haus","type":"poi","nr":"42","nrname":"42 Herbold'sches Haus","id":"frankenberg-p42-42"},"geometry":{"type":"Point","coordinates":[8.8003546,51.06051444]}},{"type":"Feature","properties":{"name":"Wassertor","type":"poi","nr":"47","nrname":"47 Wassertor","id":"frankenberg-p47-47"},"geometry":{"type":"Point","coordinates":[8.80146503,51.06081113]}},{"type":"Feature","properties":{"name":"Malerwinkel","type":"poi","nr":"40","nrname":"40 Malerwinkel","id":"frankenberg-p40-40"},"geometry":{"type":"Point","coordinates":[8.80233943,51.06060715]}},{"type":"Feature","properties":{"name":"Geismarer Tor","type":"poi","nr":"22","nrname":"22 Geismarer Tor","id":"frankenberg-u22-22"},"geometry":{"type":"Point","coordinates":[8.80331576,51.06057512]}},{"type":"Feature","properties":{"name":"Heidekirche","type":"poi","nr":"23","nrname":"23 Heidekirche","id":"frankenberg-p23-23"},"geometry":{"type":"Point","coordinates":[8.80442619,51.05913209]}},{"type":"Feature","properties":{"name":"Hexenturm","type":"poi","nr":"20","nrname":"20 Hexenturm","id":"frankenberg-p20-20"},"geometry":{"type":"Point","coordinates":[8.80471319,51.05843247]}},{"type":"Feature","properties":{"name":"Linner Tor","type":"poi","nr":"26","nrname":"26 Linner Tor","id":"frankenberg-p26-26"},"geometry":{"type":"Point","coordinates":[8.80430281,51.05766203]}},{"type":"Feature","properties":{"name":"Ehem. Synagoge","type":"poi","nr":"49","nrname":"49 Ehem. Synagoge","id":"frankenberg-p49-49"},"geometry":{"type":"Point","coordinates":[8.80356252,51.05906803]}},{"type":"Feature","properties":{"name":"Steinhaus","type":"poi","nr":"37","nrname":"37 Steinhaus","id":"frankenberg-u37-37"},"geometry":{"type":"Point","coordinates":[8.80291611,51.0586314]}},{"type":"Feature","properties":{"name":"Rathaus Kump","type":"poi","nr":"34","nrname":"34 Rathaus Kump","id":"frankenberg-u34-34"},"geometry":{"type":"Point","coordinates":[8.80266935,51.0584881]}},{"type":"Feature","properties":{"name":"Dilloffsches Haus","type":"poi","nr":"48","nrname":"48 Dilloffsches Haus","id":"frankenberg-p48-48"},"geometry":{"type":"Point","coordinates":[8.80171716,51.05859262]}},{"type":"Feature","properties":{"name":"Pfarrhof","type":"poi","nr":"25","nrname":"25 Pfarrhof","id":"frankenberg-u25-25"},"geometry":{"type":"Point","coordinates":[8.79996568,51.0591068]}},{"type":"Feature","properties":{"name":"Marktplatz","type":"poi","nr":"28","nrname":"28 Marktplatz","id":"frankenberg-u28-28"},"geometry":{"type":"Point","coordinates":[8.80137116,51.05890787]}},{"type":"Feature","properties":{"name":"Stadtweinhaus","type":"poi","nr":"29","nrname":"29 Stadtweinhaus","id":"frankenberg-u29-29"},"geometry":{"type":"Point","coordinates":[8.80142212,51.05921301]}},{"type":"Feature","properties":{"name":"Altes Brauhaus","type":"poi","nr":"30","nrname":"30 Altes Brauhaus","id":"frankenberg-u30-30"},"geometry":{"type":"Point","coordinates":[8.80147845,51.05893147]}},{"type":"Feature","properties":{"name":"Patrizierhaus","type":"poi","nr":"35","nrname":"35 Patrizierhaus","id":"frankenberg-u35-35"},"geometry":{"type":"Point","coordinates":[8.80277127,51.05856733]}},{"type":"Feature","properties":{"name":"Bürgerhaus","type":"poi","nr":"36","nrname":"36 Bürgerhaus","id":"frankenberg-u36-36"},"geometry":{"type":"Point","coordinates":[8.80141139,51.05845775]}}]}