{"type":"FeatureCollection","features":[{"type":"Feature","properties":{"point":"p","name":"Rathaus","type":"poi","nr":"1","nrname":"1 Rathaus","id":27},"geometry":{"type":"Point","coordinates":[8.80142212,51.05857408]}},{"type":"Feature","properties":{"point":"u","name":"Rathaus Kump","type":"poi","nr":"2","nrname":"2 Rathaus Kump","id":34},"geometry":{"type":"Point","coordinates":[8.80146235,51.05867354]}},{"type":"Feature","properties":{"point":"p","name":"Pfarrhof","type":"poi","nr":"3","nrname":"3 Pfarrhof","id":25},"geometry":{"type":"Point","coordinates":[8.79996568,51.0591068]}},{"type":"Feature","properties":{"point":"u","name":"Lateinschule","type":"poi","nr":"4","nrname":"4 Lateinschule","id":5},"geometry":{"type":"Point","coordinates":[8.798754,51.058902]}},{"type":"Feature","properties":{"point":"p","name":"Liebfrauenkirche","type":"poi","nr":"5","nrname":"5 Liebfrauenkirche","id":6},"geometry":{"type":"Point","coordinates":[8.798968,51.058731]}},{"type":"Feature","properties":{"point":"p","name":"Frühere Mädchenschule","type":"poi","nr":"6","nrname":"6 Frühere Mädchenschule","id":7},"geometry":{"type":"Point","coordinates":[8.79852265,51.05820488]}},{"type":"Feature","properties":{"point":"u","name":"Burgberg","type":"poi","nr":"7","nrname":"7 Burgberg","id":3},"geometry":{"type":"Point","coordinates":[8.797551,51.057895]}},{"type":"Feature","properties":{"point":"u","name":"Gedenkstein","type":"poi","nr":"8","nrname":"8 Gedenkstein","id":4},"geometry":{"type":"Point","coordinates":[8.79710376,51.05768732]}},{"type":"Feature","properties":{"point":"p","name":"Neustädter Tor","type":"poi","nr":"9","nrname":"9 Neustädter Tor","id":15},"geometry":{"type":"Point","coordinates":[8.79485071,51.05794188]}},{"type":"Feature","properties":{"point":"p","name":"Kloster St. Georgenberg","type":"poi","nr":"10","nrname":"10 Kloster St. Georgenberg","id":13},"geometry":{"type":"Point","coordinates":[8.7930603,51.0571183]}},{"type":"Feature","properties":{"point":"p","name":"Kloster St. Georgenberg","type":"poi","nr":"11","nrname":"11 Kloster St. Georgenberg","id":14},"geometry":{"type":"Point","coordinates":[8.7925642,51.0575313]}},{"type":"Feature","properties":{"point":"p","name":"Neustädter Rathaus","type":"poi","nr":"12","nrname":"12 Neustädter Rathaus","id":33},"geometry":{"type":"Point","coordinates":[8.79673898,51.05945576]}},{"type":"Feature","properties":{"point":"p","name":"Pfeffermühle","type":"poi","nr":"13","nrname":"13 Pfeffermühle","id":16},"geometry":{"type":"Point","coordinates":[8.79673898,51.05971369]}},{"type":"Feature","properties":{"point":"p","name":"Meyenhof (ehemals Hausnummer 491)","type":"poi","nr":"14","nrname":"14 Meyenhof (ehemals Hausnummer 491)","id":50},"geometry":{"type":"Point","coordinates":[8.79746854,51.06002387]}},{"type":"Feature","properties":{"point":"o","name":"Mühlentor","type":"poi","nr":"15","nrname":"15 Mühlentor","id":17},"geometry":{"type":"Point","coordinates":[8.79900545,51.06065098]}},{"type":"Feature","properties":{"point":"p","name":"Niedermühle","type":"poi","nr":"16","nrname":"16 Niedermühle","id":18},"geometry":{"type":"Point","coordinates":[8.79882306,51.06053804]}},{"type":"Feature","properties":{"point":"p","name":"Röddenauer Tor","type":"poi","nr":"17","nrname":"17 Röddenauer Tor","id":38},"geometry":{"type":"Point","coordinates":[8.79922271,51.06021437]}},{"type":"Feature","properties":{"point":"p","name":"Bürgerhaus","type":"poi","nr":"18","nrname":"18 Bürgerhaus","id":39},"geometry":{"type":"Point","coordinates":[8.79976988,51.06022954]}},{"type":"Feature","properties":{"point":"p","name":"Bürgerhaus","type":"poi","nr":"19","nrname":"19 Bürgerhaus","id":31},"geometry":{"type":"Point","coordinates":[8.80000591,51.05988733]}},{"type":"Feature","properties":{"point":"p","name":"Patrizierhaus","type":"poi","nr":"20","nrname":"20 Patrizierhaus","id":32},"geometry":{"type":"Point","coordinates":[8.80026072,51.05939507]}},{"type":"Feature","properties":{"point":"p","name":"Bürgerhaus","type":"poi","nr":"21","nrname":"21 Bürgerhaus","id":43},"geometry":{"type":"Point","coordinates":[8.80097419,51.05957377]}},{"type":"Feature","properties":{"point":"p","name":"Herbold'sches Haus","type":"poi","nr":"22","nrname":"22 Herbold'sches Haus","id":42},"geometry":{"type":"Point","coordinates":[8.8003546,51.06051444]}},{"type":"Feature","properties":{"point":"p","name":"Wassertor","type":"poi","nr":"23","nrname":"23 Wassertor","id":47},"geometry":{"type":"Point","coordinates":[8.80146503,51.06081113]}},{"type":"Feature","properties":{"point":"p","name":"Malerwinkel","type":"poi","nr":"24","nrname":"24 Malerwinkel","id":40},"geometry":{"type":"Point","coordinates":[8.80233943,51.06060715]}},{"type":"Feature","properties":{"point":"u","name":"Geismarer Tor","type":"poi","nr":"25","nrname":"25 Geismarer Tor","id":22},"geometry":{"type":"Point","coordinates":[8.80331576,51.06057512]}},{"type":"Feature","properties":{"point":"p","name":"Heidekirche","type":"poi","nr":"26","nrname":"26 Heidekirche","id":23},"geometry":{"type":"Point","coordinates":[8.80442619,51.05913209]}},{"type":"Feature","properties":{"point":"p","name":"Hexenturm","type":"poi","nr":"25","nrname":"25 Hexenturm","id":20},"geometry":{"type":"Point","coordinates":[8.80471319,51.05843247]}},{"type":"Feature","properties":{"point":"p","name":"Linner Tor","type":"poi","nr":"27","nrname":"27 Linner Tor","id":26},"geometry":{"type":"Point","coordinates":[8.80430281,51.05766203]}},{"type":"Feature","properties":{"point":"p","name":"Ehem. Synagoge","type":"poi","nr":"29","nrname":"29 Ehem. Synagoge","id":49},"geometry":{"type":"Point","coordinates":[8.80356252,51.05906803]}},{"type":"Feature","properties":{"point":"p","name":"Dilloffsches Haus","type":"poi","nr":"30","nrname":"30 Dilloffsches Haus","id":48},"geometry":{"type":"Point","coordinates":[8.80171716,51.05859262]}},{"type":"Feature","properties":{"point":"o","name":"Steinhaus","type":"poi","nr":"31","nrname":"31 Steinhaus","id":37},"geometry":{"type":"Point","coordinates":[8.80291611,51.0586314]}},{"type":"Feature","properties":{"point":"u","name":"Pfarrhof","type":"poi","nr":"32","nrname":"32 Pfarrhof","id":25},"geometry":{"type":"Point","coordinates":[8.79996568,51.0591068]}},{"type":"Feature","properties":{"point":"u","name":"Marktplatz","type":"poi","nr":"33","nrname":"33 Marktplatz","id":28},"geometry":{"type":"Point","coordinates":[8.80137116,51.05890787]}},{"type":"Feature","properties":{"point":"u","name":"Stadtweinhaus","type":"poi","nr":"34","nrname":"34 Stadtweinhaus","id":29},"geometry":{"type":"Point","coordinates":[8.80142212,51.05921301]}},{"type":"Feature","properties":{"point":"u","name":"Altes Brauhaus","type":"poi","nr":"35","nrname":"35 Altes Brauhaus","id":30},"geometry":{"type":"Point","coordinates":[8.80147845,51.05893147]}},{"type":"Feature","properties":{"point":"o","name":"Patrizierhaus","type":"poi","nr":"36","nrname":"36 Patrizierhaus","id":35},"geometry":{"type":"Point","coordinates":[8.80277127,51.05856733]}},{"type":"Feature","properties":{"point":"u","name":"Bürgerhaus","type":"poi","nr":"37","nrname":"37 Bürgerhaus","id":36},"geometry":{"type":"Point","coordinates":[8.80141139,51.05845775]}},{"type":"Feature","properties":{"point":"u","name":"Hospitalkirche","type":"poi","nr":"38","nrname":"38 Hospitalkirche","id":9},"geometry":{"type":"Point","coordinates":[8.80007029,51.05774632]}},{"type":"Feature","properties":{"point":"o","name":"Teichmühle","type":"poi","nr":"39","nrname":"39 Teichmühle","id":1},"geometry":{"type":"Point","coordinates":[8.79787624,51.05665893]}},{"type":"Feature","properties":{"point":"o","name":"Kloster St. Georgenberg","type":"poi","nr":"40","nrname":"40 Kloster St. Georgenberg","id":12},"geometry":{"type":"Point","coordinates":[8.79213631,51.05639592]}}]}