{"type":"FeatureCollection","features":[{"type":"Feature","properties":{"name":"Neues Tor","type":"poi","nr":"1","nrname":"1 Neues Tor","id":"homberg-p01-1"},"geometry":{"type":"Point","coordinates":[9.4048172,51.0326366]}},{"type":"Feature","properties":{"name":"Ehemaliges Altstädter Brauhaus","type":"poi","nr":"2","nrname":"2 Ehemaliges Altstädter Brauhaus","id":"homberg-p02-2"},"geometry":{"type":"Point","coordinates":[9.404629,51.032968]}},{"type":"Feature","properties":{"name":"Westheimer Tor","type":"poi","nr":"3","nrname":"3 Westheimer Tor","id":"homberg-p03-3"},"geometry":{"type":"Point","coordinates":[9.40278,51.03352]}},{"type":"Feature","properties":{"name":"Ehemaliges Landratsamt","type":"poi","nr":"4","nrname":"4 Ehemaliges Landratsamt","id":"homberg-p04-4"},"geometry":{"type":"Point","coordinates":[9.40311,51.03376]}},{"type":"Feature","properties":{"name":"Burgsitz von Bardeleben","type":"poi","nr":"21","nrname":"21 Burgsitz von Bardeleben","id":"homberg-p21-21"},"geometry":{"type":"Point","coordinates":[9.40336,51.03434]}},{"type":"Feature","properties":{"name":"Dörnbergtempel","type":"poi","nr":"20","nrname":"20 Dörnbergtempel","id":"homberg-u20-20"},"geometry":{"type":"Point","coordinates":[9.40405,51.03527]}},{"type":"Feature","properties":{"name":"Zehntscheune Mittelalterliches Wirtschaftsgebäude","type":"poi","nr":"18","nrname":"18 Zehntscheune Mittelalterliches Wirtschaftsgebäude","id":"homberg-u18-18"},"geometry":{"type":"Point","coordinates":[9.4055,51.03449]}},{"type":"Feature","properties":{"name":"Burgsitz von Baumbach","type":"poi","nr":"19","nrname":"19 Burgsitz von Baumbach","id":"homberg-u19-19"},"geometry":{"type":"Point","coordinates":[9.40551,51.03467]}},{"type":"Feature","properties":{"name":"Kyffhäuser-Museum","type":"poi","nr":"15","nrname":"15 Kyffhäuser-Museum","id":"homberg-p15-15"},"geometry":{"type":"Point","coordinates":[9.40643,51.03439]}},{"type":"Feature","properties":{"name":"Hochzeitspförtchen","type":"poi","nr":"16","nrname":"16 Hochzeitspförtchen","id":"homberg-u16-16"},"geometry":{"type":"Point","coordinates":[9.40657,51.03472]}},{"type":"Feature","properties":{"name":"Ärztehaus Obertor","type":"poi","nr":"17","nrname":"17 Ärztehaus Obertor","id":"homberg-u17-17"},"geometry":{"type":"Point","coordinates":[9.40776,51.03418]}},{"type":"Feature","properties":{"name":"Hochzeitshaus mit Küchenanbau - Heimatmuseum","type":"poi","nr":"14","nrname":"14 Hochzeitshaus mit Küchenanbau - Heimatmuseum","id":"homberg-p14-14"},"geometry":{"type":"Point","coordinates":[9.40612,51.03412]}},{"type":"Feature","properties":{"name":"Rathaus","type":"poi","nr":"13","nrname":"13 Rathaus","id":"homberg-p13-13"},"geometry":{"type":"Point","coordinates":[9.40661,51.034]}},{"type":"Feature","properties":{"name":"Hans-Staden-Relief","type":"poi","nr":"25","nrname":"25 Hans-Staden-Relief","id":"homberg-p25-25"},"geometry":{"type":"Point","coordinates":[9.40652,51.0338]}},{"type":"Feature","properties":{"name":"Stadthaus Familie von Baumbach","type":"poi","nr":"26","nrname":"26 Stadthaus Familie von Baumbach","id":"homberg-p26-26"},"geometry":{"type":"Point","coordinates":[9.40672,51.03381]}},{"type":"Feature","properties":{"name":"Ehemaliges landgräfliches Burglehen","type":"poi","nr":"27","nrname":"27 Ehemaliges landgräfliches Burglehen","id":"homberg-p27-27"},"geometry":{"type":"Point","coordinates":[9.40715,51.03343]}},{"type":"Feature","properties":{"name":"Ehemaliger Wohnsitz Dr. de Beauclair","type":"poi","nr":"28","nrname":"28 Ehemaliger Wohnsitz Dr. de Beauclair","id":"homberg-p28-28"},"geometry":{"type":"Point","coordinates":[9.40712,51.03329]}},{"type":"Feature","properties":{"name":"Ehemalige Synagoge","type":"poi","nr":"29","nrname":"29 Ehemalige Synagoge","id":"homberg-p29-29"},"geometry":{"type":"Point","coordinates":[9.40733,51.03303]}},{"type":"Feature","properties":{"name":"Haus des Schultheissen","type":"poi","nr":"30","nrname":"30 Haus des Schultheissen","id":"homberg-p30-30"},"geometry":{"type":"Point","coordinates":[9.40688,51.03263]}},{"type":"Feature","properties":{"name":"Pulverturm mit Wehrgang","type":"poi","nr":"32","nrname":"32 Pulverturm mit Wehrgang","id":"homberg-p32-32"},"geometry":{"type":"Point","coordinates":[9.40617,51.03229]}},{"type":"Feature","properties":{"name":"Gotisches Haus","type":"poi","nr":"31","nrname":"31 Gotisches Haus","id":"homberg-p31-31"},"geometry":{"type":"Point","coordinates":[9.40622,51.03271]}},{"type":"Feature","properties":{"name":"Gasthaus zur Krone","type":"poi","nr":"10","nrname":"10 Gasthaus zur Krone","id":"homberg-u10-10"},"geometry":{"type":"Point","coordinates":[9.405563,51.033342]}},{"type":"Feature","properties":{"name":"Fünffensterhaus Lowenapotheke","type":"poi","nr":"11","nrname":"11 Fünffensterhaus Lowenapotheke","id":"homberg-u11-11"},"geometry":{"type":"Point","coordinates":[9.40571,51.033474]}},{"type":"Feature","properties":{"name":"Geburtsnaus von Ludwig Mohr","type":"poi","nr":"9","nrname":"9 Geburtsnaus von Ludwig Mohr","id":"homberg-p09-9"},"geometry":{"type":"Point","coordinates":[9.405445,51.033479]}},{"type":"Feature","properties":{"name":"Engel-Apotheke von 1680","type":"poi","nr":"12","nrname":"12 Engel-Apotheke von 1680","id":"homberg-p12-12"},"geometry":{"type":"Point","coordinates":[9.406008,51.033657]}},{"type":"Feature","properties":{"name":"Denkmal Landgraf Philipp der Großmütige","type":"poi","nr":"8","nrname":"8 Denkmal Landgraf Philipp der Großmütige","id":"homberg-u08-8"},"geometry":{"type":"Point","coordinates":[9.4054895,51.0336763]}},{"type":"Feature","properties":{"name":"Schirnen","type":"poi","nr":"7","nrname":"7 Schirnen","id":"homberg-p07-7"},"geometry":{"type":"Point","coordinates":[9.4049933,51.0337154]}},{"type":"Feature","properties":{"name":"Löwenhaus","type":"poi","nr":"6","nrname":"6 Löwenhaus","id":"homberg-p06-6"},"geometry":{"type":"Point","coordinates":[9.40447,51.03389]}},{"type":"Feature","properties":{"name":"Weißer Hof","type":"poi","nr":"5","nrname":"5 Weißer Hof","id":"homberg-u05-5"},"geometry":{"type":"Point","coordinates":[9.40403,51.03381]}},{"type":"Feature","properties":{"name":"Ehemalige Kaserne hess. Jägerbataillon","type":"poi","nr":"22","nrname":"22 Ehemalige Kaserne hess. Jägerbataillon","id":"homberg-p22-22"},"geometry":{"type":"Point","coordinates":[9.40457,51.03413]}},{"type":"Feature","properties":{"name":"Alte Schule","type":"poi","nr":"23","nrname":"23 Alte Schule","id":"homberg-p23-23"},"geometry":{"type":"Point","coordinates":[9.40473,51.03409]}},{"type":"Feature","properties":{"name":"Stadtkirche St. Marien","type":"poi","nr":"24","nrname":"24 Stadtkirche St. Marien","id":"homberg-u24-24"},"geometry":{"type":"Point","coordinates":[9.40529,51.03402]}}]}