{"type":"FeatureCollection","features":[{"type":"Feature","properties":{"name":"Altstadt","type":"poi","nr":"1","nrname":"1 Altstadt","id":"moers-gs-p01-1"},"geometry":{"type":"Point","coordinates":[6.6262622755658,51.451371044974]}},{"type":"Feature","properties":{"name":"Evangelische Stadtkirche","type":"poi","nr":"3","nrname":"3 Evangelische Stadtkirche","id":"moers-gs-p03-3"},"geometry":{"type":"Point","coordinates":[6.6255931324432,51.451304019681]}},{"type":"Feature","properties":{"name":"Moers als Kreisstadt","type":"poi","nr":"8","nrname":"8 Moers als Kreisstadt","id":"moers-gs-u08-8"},"geometry":{"type":"Point","coordinates":[6.6245940624393,51.449964684897]}},{"type":"Feature","properties":{"name":"Moers zur NS-Zeit","type":"poi","nr":"9","nrname":"9 Moers zur NS-Zeit","id":"moers-gs-u09-9"},"geometry":{"type":"Point","coordinates":[6.6249886617683,51.449833401611]}},{"type":"Feature","properties":{"name":"Schloss","type":"poi","nr":"4","nrname":"4 Schloss","id":"moers-gs-p04-4"},"geometry":{"type":"Point","coordinates":[6.6225195173541,51.448800197191]}},{"type":"Feature","properties":{"name":"Moers als Festungsstadt I","type":"poi","nr":"6","nrname":"6 Moers als Festungsstadt I","id":"moers-gs-p06-6"},"geometry":{"type":"Point","coordinates":[6.6229590258372,51.447836327769]}},{"type":"Feature","properties":{"name":"Schlosspark","type":"poi","nr":"25","nrname":"25 Schlosspark","id":"moers-gs-p25-25"},"geometry":{"type":"Point","coordinates":[6.6242698277619,51.44863278145]}},{"type":"Feature","properties":{"name":"Katholische Kirchen","type":"poi","nr":"5","nrname":"5 Katholische Kirchen","id":"moers-gs-p05-5"},"geometry":{"type":"Point","coordinates":[6.625380032109,51.44944357077]}},{"type":"Feature","properties":{"name":"Moers als Festungsstadt III","type":"poi","nr":"24","nrname":"24 Moers als Festungsstadt III","id":"moers-gs-p24-24"},"geometry":{"type":"Point","coordinates":[6.6287752848074,51.449006244912]}},{"type":"Feature","properties":{"name":"Lehrerseminar","type":"poi","nr":"10","nrname":"10 Lehrerseminar","id":"moers-gs-u10-10"},"geometry":{"type":"Point","coordinates":[6.6267031853442,51.450684796539]}},{"type":"Feature","properties":{"name":"Juden in Moers II","type":"poi","nr":"11","nrname":"11 Juden in Moers II","id":"moers-gs-u11-11"},"geometry":{"type":"Point","coordinates":[6.6273082769687,51.451357007559]}},{"type":"Feature","properties":{"name":"Juden in Moers I","type":"poi","nr":"12","nrname":"12 Juden in Moers I","id":"moers-gs-p12-12"},"geometry":{"type":"Point","coordinates":[6.6281674461705,51.451602980865]}},{"type":"Feature","properties":{"name":"Rathaus","type":"poi","nr":"18","nrname":"18 Rathaus","id":"moers-gs-p18-18"},"geometry":{"type":"Point","coordinates":[6.6265283559723,51.453142228925]}},{"type":"Feature","properties":{"name":"Neumarkt","type":"poi","nr":"13","nrname":"13 Neumarkt","id":"moers-gs-p13-13"},"geometry":{"type":"Point","coordinates":[6.6255493736518,51.451952943629]}},{"type":"Feature","properties":{"name":"Neustadt (Neutor)","type":"poi","nr":"15","nrname":"15 Neustadt (Neutor)","id":"moers-gs-p15-15"},"geometry":{"type":"Point","coordinates":[6.6232214375769,51.452310924465]}},{"type":"Feature","properties":{"name":"Moers als Festungsstadt II","type":"poi","nr":"19","nrname":"19 Moers als Festungsstadt II","id":"moers-gs-p19-19"},"geometry":{"type":"Point","coordinates":[6.625920666034,51.454095256074]}},{"type":"Feature","properties":{"name":"GA Alt-Moers","type":"poi","nr":"20","nrname":"20 GA Alt-Moers","id":"moers-gs-p20-20"},"geometry":{"type":"Point","coordinates":[6.6277914019606,51.455156126563]}},{"type":"Feature","properties":{"name":"Gymnasium Adolfinum","type":"poi","nr":"21","nrname":"21 Gymnasium Adolfinum","id":"moers-gs-p21-21"},"geometry":{"type":"Point","coordinates":[6.6297573228319,51.453425696912]}},{"type":"Feature","properties":{"name":"Hanns-Dieter-Hösch-Bildungszentrum","type":"poi","nr":"22","nrname":"22 Hanns-Dieter-Hösch-Bildungszentrum","id":"moers-gs-p22-22"},"geometry":{"type":"Point","coordinates":[6.6313163347053,51.453066406257]}},{"type":"Feature","properties":{"name":"Martinstift","type":"poi","nr":"26","nrname":"26 Martinstift","id":"moers-gs-u26-26"},"geometry":{"type":"Point","coordinates":[6.6220089516437,51.441641207464]}},{"type":"Feature","properties":{"name":"Naturfreibad Bettenkamp","type":"poi","nr":"28","nrname":"28 Naturfreibad Bettenkamp","id":"moers-gs-u28-28"},"geometry":{"type":"Point","coordinates":[6.6104920005777,51.438427927341]}},{"type":"Feature","properties":{"name":"Kapellen","type":"poi","nr":"29","nrname":"29 Kapellen","id":"moers-gs-u29-29"},"geometry":{"type":"Point","coordinates":[6.5945253387927,51.417177152424]}},{"type":"Feature","properties":{"name":"Kastell Asciburgium","type":"poi","nr":"31","nrname":"31 Kastell Asciburgium","id":"moers-gs-u31-31"},"geometry":{"type":"Point","coordinates":[6.6707097786285,51.432595982972]}},{"type":"Feature","properties":{"name":"Mattheck","type":"poi","nr":"32","nrname":"32 Mattheck","id":"moers-gs-u32-32"},"geometry":{"type":"Point","coordinates":[6.6440378427354,51.440900789653]}},{"type":"Feature","properties":{"name":"Friedhof Moers","type":"poi","nr":"35","nrname":"35 Friedhof Moers","id":"moers-gs-u35-35"},"geometry":{"type":"Point","coordinates":[6.6388296009434,51.45017115246]}},{"type":"Feature","properties":{"name":"Siedlung Meerbeck-Hochstraß","type":"poi","nr":"37","nrname":"37 Siedlung Meerbeck-Hochstraß","id":"moers-gs-u37-37"},"geometry":{"type":"Point","coordinates":[6.6445550351219,51.459377553442]}},{"type":"Feature","properties":{"name":"Post in Moers","type":"poi","nr":"38","nrname":"38 Post in Moers","id":"moers-gs-u38-38"},"geometry":{"type":"Point","coordinates":[6.6550125559418,51.45510086397]}},{"type":"Feature","properties":{"name":"RheinpreuЯen Schacht IV","type":"poi","nr":"39","nrname":"39 RheinpreuЯen Schacht IV","id":"moers-gs-u39-39"},"geometry":{"type":"Point","coordinates":[6.6638946516755,51.454578364789]}},{"type":"Feature","properties":{"name":"Friedhof Meerbeck","type":"poi","nr":"40","nrname":"40 Friedhof Meerbeck","id":"moers-gs-u40-40"},"geometry":{"type":"Point","coordinates":[6.644774611314,51.460827209249]}},{"type":"Feature","properties":{"name":"RheinpreuЯen-Treibstoffwerk","type":"poi","nr":"41","nrname":"41 RheinpreuЯen-Treibstoffwerk","id":"moers-gs-u41-41"},"geometry":{"type":"Point","coordinates":[6.6469373817105,51.470205805581]}},{"type":"Feature","properties":{"name":"Friedhof Lohmannsheide","type":"poi","nr":"42","nrname":"42 Friedhof Lohmannsheide","id":"moers-gs-u42-42"},"geometry":{"type":"Point","coordinates":[6.6617562452794,51.481907293763]}},{"type":"Feature","properties":{"name":"Repelen","type":"poi","nr":"44","nrname":"44 Repelen","id":"moers-gs-u44-44"},"geometry":{"type":"Point","coordinates":[6.6088461066287,51.48907873021]}},{"type":"Feature","properties":{"name":"Kurbetrieb Jungborn","type":"poi","nr":"45","nrname":"45 Kurbetrieb Jungborn","id":"moers-gs-u45-45"},"geometry":{"type":"Point","coordinates":[6.6052898351733,51.484276052787]}},{"type":"Feature","properties":{"name":"Siedlung Repelen","type":"poi","nr":"46","nrname":"46 Siedlung Repelen","id":"moers-gs-u46-46"},"geometry":{"type":"Point","coordinates":[6.5879325117973,51.489094908462]}},{"type":"Feature","properties":{"name":"ENNI","type":"poi","nr":"47","nrname":"47 ENNI","id":"moers-gs-u47-47"},"geometry":{"type":"Point","coordinates":[6.6313999565225,51.447635306627]}},{"type":"Feature","properties":{"name":"Juden in Moers III","type":"poi","nr":"48","nrname":"48 Juden in Moers III","id":"moers-gs-u48-48"},"geometry":{"type":"Point","coordinates":[6.6216286,51.4534201]}}]}