{"type":"FeatureCollection","features":[{"type":"Feature","properties":{"name":"Stadion","type":"poi","nr":"1.1","nrname":"1.1Stadion","id":"05315000-b03-t01-p01-1.1"},"geometry":{"type":"Point","coordinates":[6.875446,50.935268]}},{"type":"Feature","properties":{"name":"Statthalterhof","type":"poi","nr":"1.2","nrname":"1.2Statthalterhof","id":"05315000-b03-t01-p01-1.2"},"geometry":{"type":"Point","coordinates":[6.85784,50.930549]}},{"type":"Feature","properties":{"name":"Dorfkirche (Junkersdorf)","type":"poi","nr":"1.3","nrname":"1.3Dorfkirche (Junkersdorf)","id":"05315000-b03-t01-p01-1.3"},"geometry":{"type":"Point","coordinates":[6.856209,50.93086]}},{"type":"Feature","properties":{"name":"Fronhof","type":"poi","nr":"1.4","nrname":"1.4Fronhof","id":"05315000-b03-t01-p01-1.4"},"geometry":{"type":"Point","coordinates":[6.852551,50.92969]}},{"type":"Feature","properties":{"name":"Üsdorfer Kapelle","type":"poi","nr":"1.5","nrname":"1.5Üsdorfer Kapelle","id":"05315000-b03-t01-p01-1.5"},"geometry":{"type":"Point","coordinates":[6.830728,50.934562]}},{"type":"Feature","properties":{"name":"Römische Grabkammer (Weiden)","type":"poi","nr":"1.6","nrname":"1.6Römische Grabkammer (Weiden)","id":"05315000-b03-t01-p01-1.6"},"geometry":{"type":"Point","coordinates":[6.824441,50.938576]}},{"type":"Feature","properties":{"name":"St. Marien (alte Weidener Kirche)","type":"poi","nr":"1.7","nrname":"1.7St. Marien (alte Weidener Kirche)","id":"05315000-b03-t01-p01-1.7"},"geometry":{"type":"Point","coordinates":[6.833528,50.939663]}},{"type":"Feature","properties":{"name":"Odemshof (Lövenich)","type":"poi","nr":"1.8","nrname":"1.8Odemshof (Lövenich)","id":"05315000-b03-t01-p01-1.8"},"geometry":{"type":"Point","coordinates":[6.83134,50.94478]}},{"type":"Feature","properties":{"name":"Mertenshof","type":"poi","nr":"1.9","nrname":"1.9Mertenshof","id":"05315000-b03-t01-p01-1.9"},"geometry":{"type":"Point","coordinates":[6.829854,50.944301]}},{"type":"Feature","properties":{"name":"Keuchhof","type":"poi","nr":"1.10","nrname":"1.10Keuchhof","id":"05315000-b03-t01-p01-1.10"},"geometry":{"type":"Point","coordinates":[6.827976,50.944647]}},{"type":"Feature","properties":{"name":"St. Severin","type":"poi","nr":"1.11","nrname":"1.11St. Severin","id":"05315000-b03-t01-p01-1.11"},"geometry":{"type":"Point","coordinates":[6.829419,50.945108]}},{"type":"Feature","properties":{"name":"Haus Közal","type":"poi","nr":"1.12","nrname":"1.12Haus Közal","id":"05315000-b03-t01-p01-1.12"},"geometry":{"type":"Point","coordinates":[6.832048,50.950073]}},{"type":"Feature","properties":{"name":"Mertenshof (Widdersdorf)","type":"poi","nr":"1.13","nrname":"1.13Mertenshof (Widdersdorf)","id":"05315000-b03-t01-p01-1.13"},"geometry":{"type":"Point","coordinates":[6.826742,50.963089]}},{"type":"Feature","properties":{"name":"St. Jakobus (Widdersdorf)","type":"poi","nr":"1.14","nrname":"1.14St. Jakobus (Widdersdorf)","id":"05315000-b03-t01-p01-1.14"},"geometry":{"type":"Point","coordinates":[6.827053,50.963701]}},{"type":"Feature","properties":{"name":"Burghof (Widdersdorf)","type":"poi","nr":"1.15","nrname":"1.15Burghof (Widdersdorf)","id":"05315000-b03-t01-p01-1.15"},"geometry":{"type":"Point","coordinates":[6.827322,50.964211]}}]}