{"type":"FeatureCollection","features":[{"type":"Feature","properties":{"name":"1.1 Stadion","type":"poi","id":"05315000-b03-t01-p01-1.1"},"geometry":{"type":"Point","coordinates":[6.875446,50.935268]}},{"type":"Feature","properties":{"name":"1.2 Statthalterhof","type":"poi","id":"05315000-b03-t01-p01-1.2"},"geometry":{"type":"Point","coordinates":[6.85784,50.930549]}},{"type":"Feature","properties":{"name":"1.3 Dorfkirche (Junkersdorf)","type":"poi","id":"05315000-b03-t01-p01-1.3"},"geometry":{"type":"Point","coordinates":[6.856209,50.93086]}},{"type":"Feature","properties":{"name":"1.4 Fronhof","type":"poi","id":"05315000-b03-t01-p01-1.4"},"geometry":{"type":"Point","coordinates":[6.852551,50.92969]}},{"type":"Feature","properties":{"name":"1.5 Üsdorfer Kapelle","type":"poi","id":"05315000-b03-t01-p01-1.5"},"geometry":{"type":"Point","coordinates":[6.830728,50.934562]}},{"type":"Feature","properties":{"name":"1.6 Römische Grabkammer (Weiden)","type":"poi","id":"05315000-b03-t01-p01-1.6"},"geometry":{"type":"Point","coordinates":[6.824441,50.938576]}},{"type":"Feature","properties":{"name":"1.7 St. Marien (alte Weidener Kirche)","type":"poi","id":"05315000-b03-t01-p01-1.7"},"geometry":{"type":"Point","coordinates":[6.833528,50.939663]}},{"type":"Feature","properties":{"name":"1.8 Odemshof (Lövenich)","type":"poi","id":"05315000-b03-t01-p01-1.8"},"geometry":{"type":"Point","coordinates":[6.83134,50.94478]}},{"type":"Feature","properties":{"name":"1.9 Mertenshof","type":"poi","id":"05315000-b03-t01-p01-1.9"},"geometry":{"type":"Point","coordinates":[6.829854,50.944301]}},{"type":"Feature","properties":{"name":"1.10 Keuchhof","type":"poi","id":"05315000-b03-t01-p01-1.10"},"geometry":{"type":"Point","coordinates":[6.827976,50.944647]}},{"type":"Feature","properties":{"name":"1.11 St. Severin","type":"poi","id":"05315000-b03-t01-p01-1.11"},"geometry":{"type":"Point","coordinates":[6.829419,50.945108]}},{"type":"Feature","properties":{"name":"1.12 Haus Közal","type":"poi","id":"05315000-b03-t01-p01-1.12"},"geometry":{"type":"Point","coordinates":[6.832048,50.950073]}},{"type":"Feature","properties":{"name":"1.13 Mertenshof (Widdersdorf)","type":"poi","id":"05315000-b03-t01-p01-1.13"},"geometry":{"type":"Point","coordinates":[6.826742,50.963089]}},{"type":"Feature","properties":{"name":"1.14 St. Jakobus (Widdersdorf)","type":"poi","id":"05315000-b03-t01-p01-1.14"},"geometry":{"type":"Point","coordinates":[6.827053,50.963701]}},{"type":"Feature","properties":{"name":"1.15 Burghof (Widdersdorf)","type":"poi","id":"05315000-b03-t01-p01-1.15"},"geometry":{"type":"Point","coordinates":[6.827322,50.964211]}}]}